
Connected to pydev debugger (build 241.14494.240)
GA,071640.000,3115.45809,N,12129.08763,E,1,10,1.1,-10.5,M,11.2,M,,*59
$GNGLL,3115.45809,N,12129.08763,E,071640.000,A,A*46
$GNGSA,A,3,05,10,15,18,23,24,,,,,,,1.9,1.1,1.5,1*33
$GNGSA,A,3,13,16,38,39,,,,,,,,,1.9,1.1,1.5,4*3C
$GPGSV,3,1,09,05,24,113,29,10,11,310,31,15,47,042,45,18,61,242,37,0*6A
$GPGSV,3,2,09,22,05,057,31,23,44,325,38,24,79,135,40,32,,,32,0*5D
$GPGSV,3,3,09,195,,,29,0*5A
$BDGSV,3,1,12,02,,,34,03,,,16,09,,,31,13,63,342,39,0*47
$BDGSV,3,2,12,16,56,207,28,20,,,36,30,,,41,32,,,45,0*4C
$BDGSV,3,3,12,37,,,24,38,76,069,40,39,68,211,40,59,,,32,0*7B
$GNRMC,071640.000,A,3115.45809,N,12129.08763,E,0.00,0.00,050824,,,A,V*00
$GNVTG,0.00,T,,M,0.00,N,0.00,K,A*23
$GNZDA,071640.000,05,08,2024,00,00*45
$GPTXT,01,01,01,ANTENNA OK*35
$GNGGA,071641.000,3115.45808,N,12129.08765,E,1,10,1.1,-10.8,M,11.2,M,,*52
$GNGLL,3115.45808,N,12129.08765,E,071641.000,A,A*40
$GNGSA,A,3,05,10,15,18,23,24,,,,,,,1.9,1.1,1.5,1*33
$GNGSA,A,3,13,16,38,39,,,,,,,,,1.9,1.1,1.5,4*3C
$GPGSV,3,1,10,05,24,113,29,10,11,310,31,12,,,27,15,47,042,45,0*5A
$GPGSV,3,2,10,18,61,242,37,22,05,057,31,23,44,325,38,24,79,135,40,0*6B
$GPGSV,3,3,10,32,,,32,195,,,29,0*52
$BDGSV,3,1,12,02,,,34,03,,,16,09,,,31,13,63,342,39,0*47
$BDGSV,3,2,12,16,56,207,29,20,,,35,30,,,40,32,,,47,0*4D
$BDGSV,3,3,12,37,,,30,38,76,069,40,39,68,211,40,59,,,32,0*7E
$GNRMC,071641.000,A,3115.45808,N,12129.08765,E,0.00,0.00,050824,,,A,V*06
$GNVTG,0.00,T,,M,0.00,N,0.00,K,A*23
$GNZDA,071641.000,05,08,2024,00,00*44
$GPTXT,01,01,01,ANTENNA OK*35
$GNGGA,071642.000,3115.45806,N,12129.08764,E,1,10,1.1,-11.0,M,11.2,M,,*57
$GNGLL,3115.45806,N,12129.08764,E,071642.000,A,A*4C
$GNGSA,A,3,05,10,15,18,23,24,,,,,,,1.9,1.1,1.5,1*33
$GNGSA,A,3,13,16,38,39,,,,,,,,,1.9,1.1,1.5,4*3C
$GPGSV,3,1,10,05,24,113,29,10,11,310,32,12,,,27,15,47,042,45,0*59
$GPGSV,3,2,10,18,61,242,37,22,05,057,31,23,44,325,38,24,79,135,40,0*6B
$GPGSV,3,3,10,32,,,32,195,,,29,0*52
$BDGSV,3,1,12,02,,,33,03,,,16,09,,,30,13,63,342,39,0*41
$BDGSV,3,2,12,16,56,207,29,20,,,36,30,,,40,32,,,47,0*4E
$BDGSV,3,3,12,37,,,30,38,76,069,41,39,68,211,40,59,,,32,0*7F
$GNRMC,071642.000,A,3115.45806,N,12129.08764,E,0.00,0.00,050824,,,A,V*0A
$GNVTG,0.00,T,,M,0.00,N,0.00,K,A*23
$GNZDA,071642.000,05,08,2024,00,00*47
$GPTXT,01,01,01,ANTENNA OK*35
$GNGGA,071643.000,3115.45804,N,12129.08761,E,1,10,1.1,-11.1,M,11.2,M,,*50
$GNGLL,3115.45804,N,12129.08761,E,071643.000,A,A*4A
$GNGSA,A,3,05,10,15,18,23,24,,,,,,,1.9,1.1,1.5,1*33
程序被用户中断

Connected to pydev debugger (build 241.14494.240)
M,0.00,N,0.00,K,A*23
$GNZDA,071825.000,05,08,2024,00,00*48
$GPTXT,01,01,01,ANTENNA OK*35
$GNGGA,071826.000,3115.46124,N,12129.08821,E,1,25,0.6,7.5,M,11.2,M,,*40
$GNGLL,3115.46124,N,12129.08821,E,071826.000,A,A*44
$GNGSA,A,3,05,10,15,18,23,24,32,195,199,,,,1.1,0.6,0.9,1*3D
$GNGSA,A,3,01,02,03,06,08,09,13,16,20,30,32,37,1.1,0.6,0.9,4*3D
$GPGSV,4,1,14,05,24,113,11,07,,,23,10,12,310,27,12,,,18,0*6C
$GPGSV,4,2,14,15,47,043,35,16,,,24,18,61,241,41,22,05,056,25,0*5C
$GPGSV,4,3,14,23,45,325,29,24,79,131,46,30,,,19,32,07,260,25,0*5F
$GPGSV,4,4,14,195,36,174,42,199,53,169,40,0*61
$BDGSV,5,1,17,01,47,140,36,02,38,238,37,03,53,201,36,04,,,29,0*4C
$BDGSV,5,2,17,06,53,208,40,08,70,009,41,09,35,210,38,13,63,342,40,0*79
$BDGSV,5,3,17,16,56,208,41,20,36,307,38,30,26,229,44,32,57,033,45,0*7B
$BDGSV,5,4,17,37,40,154,48,38,76,071,45,39,68,211,44,41,17,084,27,0*7E
$BDGSV,5,5,17,59,51,145,41,0*4F
$GNRMC,071826.000,A,3115.46124,N,12129.08821,E,0.00,0.00,050824,,,A,V*02
$GNVTG,0.00,T,,M,0.00,N,0.00,K,A*23
$GNZDA,071826.000,05,08,2024,00,00*4B
$GPTXT,01,01,01,ANTENNA OK*35
$GNGGA,071827.000,3115.46124,N,12129.08818,E,1,25,0.6,7.6,M,11.2,M,,*48
$GNGLL,3115.46124,N,12129.08818,E,071827.000,A,A*4F
$GNGSA,A,3,05,10,15,18,23,24,32,195,199,,,,1.1,0.6,0.9,1*3D
$GNGSA,A,3,01,02,03,06,08,09,13,16,20,30,32,37,1.1,0.6,0.9,4*3D
$GPGSV,4,1,14,05,24,113,11,07,,,23,10,12,310,27,12,,,18,0*6C
$GPGSV,4,2,14,15,47,043,35,16,,,24,18,61,241,41,22,05,056,25,0*5C
$GPGSV,4,3,14,23,45,325,29,24,79,131,45,30,,,19,32,07,260,25,0*5C
$GPGSV,4,4,14,195,36,174,42,199,53,169,40,0*61
$BDGSV,5,1,17,01,47,140,36,02,38,238,37,03,53,201,36,04,,,29,0*4C
$BDGSV,5,2,17,06,53,208,40,08,70,009,41,09,35,210,38,13,63,342,40,0*79
$BDGSV,5,3,17,16,56,208,41,20,36,307,38,30,26,229,44,32,57,033,45,0*7B
$BDGSV,5,4,17,37,41,154,49,38,76,071,45,39,68,211,44,41,17,084,27,0*7E
$BDGSV,5,5,17,59,51,145,41,0*4F
$GNRMC,071827.000,A,3115.46124,N,12129.08818,E,0.00,0.00,050824,,,A,V*09
$GNVTG,0.00,T,,M,0.00,N,0.00,K,A*23
$GNZDA,071827.000,05,08,2024,00,00*4A
$GPTXT,01,01,01,ANTENNA OK*35
$GNGGA,071828.000,3115.46125,N,12129.08816,E,1,25,0.6,7.7,M,11.2,M,,*49
$GNGLL,3115.46125,N,12129.08816,E,071828.000,A,A*4F
$GNGSA,A,3,05,10,15,18,23,24,32,195,199,,,,1.1,0.6,0.9,1*3D
$GNGSA,A,3,01,02,03,06,08,09,13,16,20,30,32,37,1.1,0.6,0.9,4*3D
$GPGSV,4,1,14,05,24,113,19,07,,,23,10,12,310,27,12,,,18,0*64
$GPGSV,4,2,14,15,47,043,35,16,,,24,18,61,241,41,22,05,056,26,0*5F
$GPGSV,4,3,14,23,45,325,29,24,79,131,45,30,,,19,32,07,260,25,0*5C
$GPGSV,4,4,14,195,36,174,42,199,53,169,40,0*61
$BDGSV,5,1,17,01,47,140,36,02,38,238,37,03,53,201,36,04,,,29,0*4C
$BDGSV,5,2,17,06,53,208,40,08,70,009,41,09,35,210,38,13,63,342,40,0*79
$BDGSV,5,3,17,16,56,208,41,20,36,307,38,30,26,229,44,32,57,033,46,0*78
$BDGSV,5,4,17,37,41,154,48,38,76,071,45,39,68,211,44,41,17,084,27,0*7F
$BDGSV,5,5,17,59,51,145,41,0*4F
$GNRMC,071828.000,A,3115.46125,N,12129.08816,E,0.00,0.00,050824,,,A,V*09
$GNVTG,0.00,T,,M,0.00,N,0.00,K,A*23
$GNZDA,071828.000,05,08,2024,00,00*45
$GPTXT,01,01,01,ANTENNA OK*35
$GNGGA,071829.000,3115.46125,N,12129.08813,E,1,25,0.6,7.7,M,11.2,M,,*4D
$GNGLL,3115.46125,N,12129.08813,E,071829.000,A,A*4B
$GNGSA,A,3,05,10,15,18,23,24,32,195,199,,,,1.1,0.6,0.9,1*3D
$GNGSA,A,3,01,02,03,06,08,09,13,16,20,30,32,37,1.1,0.6,0.9,4*3D
$GPGSV,4,1,15,05,24,113,24,07,,,23,10,12,310,27,12,,,18,0*6B
$GPGSV,4,2,15,15,47,043,35,16,,,20,18,61,241,41,22,05,056,26,0*5A
$GPGSV,4,3,15,23,45,325,29,24,79,131,45,25,,,23,30,,,22,0*66
程序被用户中断

Connected to pydev debugger (build 241.14494.240)
,141.76,050824,,,A,V*06
$GNVTG,141.76,T,,M,0.00,N,0.00,K,A*26
$GNZDA,071932.000,05,08,2024,00,00*4F
$GPTXT,01,01,01,ANTENNA OK*35
$GNGGA,071933.000,3115.45633,N,12129.10031,E,1,20,0.8,16.8,M,11.2,M,,*71
$GNGLL,3115.45633,N,12129.10031,E,071933.000,A,A*43
$GNGSA,A,3,05,10,15,18,23,24,32,195,199,,,,1.4,0.8,1.1,1*3F
$GNGSA,A,3,02,06,08,09,13,16,20,30,37,38,39,,1.4,0.8,1.1,4*3D
$GPGSV,3,1,11,05,23,114,19,10,12,310,41,12,,,06,15,46,043,17,0*58
$GPGSV,3,2,11,18,61,240,24,22,05,056,09,23,45,325,25,24,79,128,17,0*63
$GPGSV,3,3,11,32,07,260,17,195,36,174,19,199,53,169,14,0*5F
$BDGSV,5,1,17,01,47,140,,02,38,238,17,03,53,201,10,04,,,06,0*42
$BDGSV,5,2,17,06,53,209,13,08,70,009,13,09,35,210,13,13,63,342,18,0*7D
$BDGSV,5,3,17,16,56,208,12,20,36,307,36,30,26,229,26,32,57,034,03,0*72
$BDGSV,5,4,17,37,41,154,14,38,76,072,15,39,68,212,24,41,17,084,,0*70
$BDGSV,5,5,17,59,51,145,,0*4A
$GNRMC,071933.000,A,3115.45633,N,12129.10031,E,1.22,141.76,050824,,,A,V*01
$GNVTG,141.76,T,,M,1.22,N,2.26,K,A*21
$GNZDA,071933.000,05,08,2024,00,00*4E
$GPTXT,01,01,01,ANTENNA OK*35
$GNGGA,071934.000,3115.45668,N,12129.10060,E,1,19,0.8,16.9,M,11.2,M,,*77
$GNGLL,3115.45668,N,12129.10060,E,071934.000,A,A*4E
$GNGSA,A,3,05,10,15,18,23,24,32,195,199,,,,1.4,0.8,1.1,1*3F
$GNGSA,A,3,02,08,09,13,16,20,30,37,38,39,,,1.4,0.8,1.1,4*3B
$GPGSV,3,1,11,05,23,114,21,10,12,310,41,12,,,06,15,46,043,11,0*55
$GPGSV,3,2,11,18,61,240,20,22,05,056,09,23,45,325,27,24,79,128,17,0*65
$GPGSV,3,3,11,32,07,260,17,195,36,174,19,199,53,169,14,0*5F
$BDGSV,5,1,17,01,47,140,15,02,38,238,17,03,53,201,10,04,,,06,0*46
$BDGSV,5,2,17,06,53,209,03,08,70,009,13,09,35,210,13,13,63,342,18,0*7C
$BDGSV,5,3,17,16,56,208,12,20,36,307,36,30,26,229,24,32,57,034,03,0*70
$BDGSV,5,4,17,37,41,154,14,38,76,072,15,39,68,212,12,41,17,084,,0*75
$BDGSV,5,5,17,59,51,145,,0*4A
$GNRMC,071934.000,A,3115.45668,N,12129.10060,E,1.77,141.76,050824,,,A,V*0C
$GNVTG,141.76,T,,M,1.77,N,3.27,K,A*21
$GNZDA,071934.000,05,08,2024,00,00*49
$GPTXT,01,01,01,ANTENNA OK*35
$GNGGA,071935.000,3115.45697,N,12129.10091,E,1,19,0.8,17.1,M,11.2,M,,*71
$GNGLL,3115.45697,N,12129.10091,E,071935.000,A,A*41
$GNGSA,A,3,05,10,15,18,23,24,32,195,199,,,,1.4,0.8,1.1,1*3F
$GNGSA,A,3,02,08,09,13,16,20,30,37,38,39,,,1.4,0.8,1.1,4*3B
$GPGSV,3,1,11,05,23,114,21,10,12,310,40,12,,,09,15,46,043,11,0*5B
$GPGSV,3,2,11,18,61,240,20,22,05,056,09,23,45,325,27,24,79,128,17,0*65
$GPGSV,3,3,11,32,07,260,17,195,36,174,19,199,53,169,14,0*5F
$BDGSV,5,1,17,01,47,140,15,02,38,238,17,03,53,201,10,04,,,06,0*46
$BDGSV,5,2,17,06,53,209,03,08,70,009,13,09,35,210,13,13,63,342,18,0*7C
$BDGSV,5,3,17,16,56,208,12,20,36,307,36,30,26,229,24,32,57,034,03,0*70
$BDGSV,5,4,17,37,41,154,14,38,76,072,15,39,68,212,12,41,17,085,,0*74
$BDGSV,5,5,17,59,51,145,,0*4A
$GNRMC,071935.000,A,3115.45697,N,12129.10091,E,1.32,141.76,050824,,,A,V*02
$GNVTG,141.76,T,,M,1.32,N,2.45,K,A*25
$GNZDA,071935.000,05,08,2024,00,00*48
$GPTXT,01,01,01,ANTENNA OK*35
$GNGGA,071936.000,3115.45721,N,12129.10114,E,1,19,0.8,17.3,M,11.2,M,,*70
程序被用户中断

Connected to pydev debugger (build 241.14494.240)
,141.76,050824,,,A,V*06
$GNVTG,141.76,T,,M,0.00,N,0.00,K,A*26
$GNZDA,071932.000,05,08,2024,00,00*4F
$GPTXT,01,01,01,ANTENNA OK*35
$GNGGA,071933.000,3115.45633,N,12129.10031,E,1,20,0.8,16.8,M,11.2,M,,*71
$GNGLL,3115.45633,N,12129.10031,E,071933.000,A,A*43
$GNGSA,A,3,05,10,15,18,23,24,32,195,199,,,,1.4,0.8,1.1,1*3F
$GNGSA,A,3,02,06,08,09,13,16,20,30,37,38,39,,1.4,0.8,1.1,4*3D
$GPGSV,3,1,11,05,23,114,19,10,12,310,41,12,,,06,15,46,043,17,0*58
$GPGSV,3,2,11,18,61,240,24,22,05,056,09,23,45,325,25,24,79,128,17,0*63
$GPGSV,3,3,11,32,07,260,17,195,36,174,19,199,53,169,14,0*5F
$BDGSV,5,1,17,01,47,140,,02,38,238,17,03,53,201,10,04,,,06,0*42
$BDGSV,5,2,17,06,53,209,13,08,70,009,13,09,35,210,13,13,63,342,18,0*7D
$BDGSV,5,3,17,16,56,208,12,20,36,307,36,30,26,229,26,32,57,034,03,0*72
$BDGSV,5,4,17,37,41,154,14,38,76,072,15,39,68,212,24,41,17,084,,0*70
$BDGSV,5,5,17,59,51,145,,0*4A
$GNRMC,071933.000,A,3115.45633,N,12129.10031,E,1.22,141.76,050824,,,A,V*01
$GNVTG,141.76,T,,M,1.22,N,2.26,K,A*21
$GNZDA,071933.000,05,08,2024,00,00*4E
$GPTXT,01,01,01,ANTENNA OK*35
$GNGGA,071934.000,3115.45668,N,12129.10060,E,1,19,0.8,16.9,M,11.2,M,,*77
$GNGLL,3115.45668,N,12129.10060,E,071934.000,A,A*4E
$GNGSA,A,3,05,10,15,18,23,24,32,195,199,,,,1.4,0.8,1.1,1*3F
$GNGSA,A,3,02,08,09,13,16,20,30,37,38,39,,,1.4,0.8,1.1,4*3B
$GPGSV,3,1,11,05,23,114,21,10,12,310,41,12,,,06,15,46,043,11,0*55
$GPGSV,3,2,11,18,61,240,20,22,05,056,09,23,45,325,27,24,79,128,17,0*65
$GPGSV,3,3,11,32,07,260,17,195,36,174,19,199,53,169,14,0*5F
$BDGSV,5,1,17,01,47,140,15,02,38,238,17,03,53,201,10,04,,,06,0*46
$BDGSV,5,2,17,06,53,209,03,08,70,009,13,09,35,210,13,13,63,342,18,0*7C
$BDGSV,5,3,17,16,56,208,12,20,36,307,36,30,26,229,24,32,57,034,03,0*70
$BDGSV,5,4,17,37,41,154,14,38,76,072,15,39,68,212,12,41,17,084,,0*75
$BDGSV,5,5,17,59,51,145,,0*4A
$GNRMC,071934.000,A,3115.45668,N,12129.10060,E,1.77,141.76,050824,,,A,V*0C
$GNVTG,141.76,T,,M,1.77,N,3.27,K,A*21
$GNZDA,071934.000,05,08,2024,00,00*49
$GPTXT,01,01,01,ANTENNA OK*35
$GNGGA,071935.000,3115.45697,N,12129.10091,E,1,19,0.8,17.1,M,11.2,M,,*71
$GNGLL,3115.45697,N,12129.10091,E,071935.000,A,A*41
$GNGSA,A,3,05,10,15,18,23,24,32,195,199,,,,1.4,0.8,1.1,1*3F
$GNGSA,A,3,02,08,09,13,16,20,30,37,38,39,,,1.4,0.8,1.1,4*3B
$GPGSV,3,1,11,05,23,114,21,10,12,310,40,12,,,09,15,46,043,11,0*5B
$GPGSV,3,2,11,18,61,240,20,22,05,056,09,23,45,325,27,24,79,128,17,0*65
$GPGSV,3,3,11,32,07,260,17,195,36,174,19,199,53,169,14,0*5F
$BDGSV,5,1,17,01,47,140,15,02,38,238,17,03,53,201,10,04,,,06,0*46
$BDGSV,5,2,17,06,53,209,03,08,70,009,13,09,35,210,13,13,63,342,18,0*7C
$BDGSV,5,3,17,16,56,208,12,20,36,307,36,30,26,229,24,32,57,034,03,0*70
$BDGSV,5,4,17,37,41,154,14,38,76,072,15,39,68,212,12,41,17,085,,0*74
$BDGSV,5,5,17,59,51,145,,0*4A
$GNRMC,071935.000,A,3115.45697,N,12129.10091,E,1.32,141.76,050824,,,A,V*02
$GNVTG,141.76,T,,M,1.32,N,2.45,K,A*25
$GNZDA,071935.000,05,08,2024,00,00*48
$GPTXT,01,01,01,ANTENNA OK*35
$GNGGA,071936.000,3115.45721,N,12129.10114,E,1,19,0.8,17.3,M,11.2,M,,*70
程序被用户中断

Process finished with exit code 0
